[
	{
		"title" : "Нацыянальны мастацкі музей Беларусі",
		"description" : "Национальный художественный музей Республики Беларусь — крупнейший музей художественного профиля в Беларуси, Государственная картинная галерея с 1939 до 1957, Государственный художественный музей с 1957 по 1993.",
		"lat" : 53.898672,
		"lng" : 27.560059
	},

	{
		"title" : "Палац Незалежнасці",
		"description" : "Па словах прэзідэнта Беларусі Аляксандра Лукашэнкі, Палац Незалежнасці ў комплексе з плошчай Дзяржаўнага Сцяга канчаткова падкрэслівае непахіснасць беларускай дзяржаўнасці і незалежнасці. У Палацы будуць праходзіць асноўныя дзяржаўныя мерапрыемствы, пачынаючы ад уручэння замежнымі ...",
		"lat" : 53.927265,
		"lng" : 27.525414
	},

	{
		"title" : "Музей истории Великой Отечественной войны",
		"description" : "Музей с 24 залами в историческом здании, открытый в 1944 году и посвященный Второй мировой войне.",
		"lat" : 53.916250,
		"lng" : 27.537901
	},

	{
		"title" : "Институт ИФО и МО Белорусского национального технического университета, проспект Независимости 65/3, Минск",
		"description" : "Кафедра проводит обучение по дисциплинам «Рисунок», «Живопись», «Архитектурная композиция», «Черчение» на: подготовительном отделении ИИФО и МО; восьми и пятимесячных вечерних подготовительных курсах БНТУ; летних подготовительных курсах БНТУ. Занятия проводятся согласно учебным ...",
		"lat" : 53.921412,
		"lng" : 27.591606
	},

	{
		"title" : "Нацыянальная бібліятэка Беларусі",
		"description" : "Современная национальная библиотека с уникальным дизайном: обширная коллекция книг и смотровая площадка.",
		"lat" : 53.931352,
		"lng" : 27.646153
	}
]